[
  {
    "file": "siguniang_maobiliang.yaml",
    "name": "猫鼻梁",
    "poi_name": "四姑娘山景区-长坪沟景区",
    "poi_address": "长坪沟旅游路",
    "gcj02_lng": 102.859271,
    "gcj02_lat": 31.012171,
    "wgs84_lng": 102.857694,
    "wgs84_lat": 31.014731,
    "old_lat": 31.096,
    "old_lon": 102.932
  },
  {
    "file": "siguniang_changping.yaml",
    "name": "长坪沟",
    "poi_name": "四姑娘山景区-长坪沟景区",
    "poi_address": "长坪沟旅游路",
    "gcj02_lng": 102.859271,
    "gcj02_lat": 31.012171,
    "wgs84_lng": 102.857694,
    "wgs84_lat": 31.014731,
    "old_lat": 31.09,
    "old_lon": 102.941
  },
  {
    "file": "siguniang_shuangqiao.yaml",
    "name": "双桥沟",
    "poi_name": "四姑娘山景区双桥沟",
    "poi_address": "四姑娘山镇",
    "gcj02_lng": 102.769727,
    "gcj02_lat": 30.980074,
    "wgs84_lng": 102.768042,
    "wgs84_lat": 30.982511,
    "old_lat": 31.137,
    "old_lon": 102.966
  },
  {
    "file": "siguniang_haizi_chaoshanping.yaml",
    "name": "海子沟-朝山坪",
    "poi_name": "四姑娘山景区海子沟风景区",
    "poi_address": "四姑娘山景区内(南侧)",
    "gcj02_lng": 102.839835,
    "gcj02_lat": 30.993909,
    "wgs84_lng": 102.838233,
    "wgs84_lat": 30.996446,
    "old_lat": 31.073,
    "old_lon": 102.918
  },
  {
    "file": "siguniang_erguniang_view.yaml",
    "name": "二姑娘峰观景位",
    "poi_name": "四姑娘山景区",
    "poi_address": "四姑娘山镇350国道旁",
    "gcj02_lng": 102.826018,
    "gcj02_lat": 31.094381,
    "wgs84_lng": 102.824391,
    "wgs84_lat": 31.096836,
    "old_lat": 31.077,
    "old_lon": 102.905
  },
  {
    "file": "gongga_lenggacuo.yaml",
    "name": "冷嘎措",
    "poi_name": "冷嘎措景区",
    "poi_address": [],
    "gcj02_lng": 101.701158,
    "gcj02_lat": 29.635357,
    "wgs84_lng": 101.69951,
    "wgs84_lat": 29.638151,
    "old_lat": 29.676,
    "old_lon": 101.995
  },
  {
    "file": "gongga_niubei.yaml",
    "name": "牛背山（贡嘎）",
    "poi_name": "牛背山景区",
    "poi_address": "176县道",
    "gcj02_lng": 102.416716,
    "gcj02_lat": 29.771273,
    "wgs84_lng": 102.414969,
    "wgs84_lat": 29.77381,
    "old_lat": 29.839,
    "old_lon": 102.283
  },
  {
    "file": "gongga_yaha_pass.yaml",
    "name": "雅哈垭口",
    "poi_name": "雅哈垭口",
    "poi_address": "康定市",
    "gcj02_lng": 101.724817,
    "gcj02_lat": 29.739758,
    "wgs84_lng": 101.723135,
    "wgs84_lat": 29.7425,
    "old_lat": 29.886,
    "old_lon": 101.839
  },
  {
    "file": "gongga_yuzixi.yaml",
    "name": "鱼子西",
    "poi_name": "鱼子西(暂停开放)",
    "poi_address": "新都桥镇",
    "gcj02_lng": 101.583305,
    "gcj02_lat": 30.207381,
    "wgs84_lng": 101.581788,
    "wgs84_lat": 30.210279,
    "old_lat": 30.067,
    "old_lon": 101.675
  },
  {
    "file": "gongga_zimei_pass.yaml",
    "name": "子梅垭口",
    "poi_name": "子梅垭口",
    "poi_address": "贡嘎山镇子梅村",
    "gcj02_lng": 101.723028,
    "gcj02_lat": 29.515434,
    "wgs84_lng": 101.721355,
    "wgs84_lat": 29.518239,
    "old_lat": 29.689,
    "old_lon": 101.997
  },
  {
    "file": "genie_eye.yaml",
    "name": "格聂之眼",
    "poi_name": "格聂之眼",
    "poi_address": "海子山国家级自然保护区格聂景区",
    "gcj02_lng": 99.760589,
    "gcj02_lat": 29.795537,
    "wgs84_lng": 99.759393,
    "wgs84_lat": 29.798288,
    "old_lat": 30.018,
    "old_lon": 99.844
  },
  {
    "file": "genie_chachongxi.yaml",
    "name": "查冲西村",
    "poi_name": "查冲西村村民委员会",
    "poi_address": [],
    "gcj02_lng": 99.657266,
    "gcj02_lat": 29.739884,
    "wgs84_lng": 99.656227,
    "wgs84_lat": 29.742763,
    "old_lat": 30.107,
    "old_lon": 99.905
  },
  {
    "file": "genie_laolenggusi.yaml",
    "name": "老冷古寺",
    "poi_name": "老冷古寺",
    "poi_address": [],
    "gcj02_lng": 99.644836,
    "gcj02_lat": 29.816693,
    "wgs84_lng": 99.643822,
    "wgs84_lat": 29.819585,
    "old_lat": 30.036,
    "old_lon": 99.856
  },
  {
    "file": "genie_nuda_camp.yaml",
    "name": "努达营地",
    "poi_name": "资阳张妈手撕虎皮烤兔(眉山店)",
    "poi_address": "诗书路中一段269-271号",
    "gcj02_lng": 103.84154,
    "gcj02_lat": 30.054915,
    "wgs84_lng": 103.839426,
    "wgs84_lat": 30.057724,
    "old_lat": 29.998,
    "old_lon": 99.793
  },
  {
    "file": "genie_xiazetong.yaml",
    "name": "下则通村",
    "poi_name": "下则通村村民委员会",
    "poi_address": "格聂之眼龙金格登山居西北侧70米",
    "gcj02_lng": 99.77196,
    "gcj02_lat": 29.822729,
    "wgs84_lng": 99.77077,
    "wgs84_lat": 29.825485,
    "old_lat": 30.056,
    "old_lon": 99.882
  },
  {
    "file": "yading_echushan_view.yaml",
    "name": "俄初山观景台",
    "poi_name": "俄初山观景台",
    "poi_address": [],
    "gcj02_lng": 100.195498,
    "gcj02_lat": 28.5594,
    "wgs84_lng": 100.194275,
    "wgs84_lat": 28.562789,
    "old_lat": 28.586,
    "old_lon": 100.242
  },
  {
    "file": "yading_five_color_lake.yaml",
    "name": "五色海",
    "poi_name": "五色海",
    "poi_address": [],
    "gcj02_lng": 100.352798,
    "gcj02_lat": 28.377089,
    "wgs84_lng": 100.351471,
    "wgs84_lat": 28.380442,
    "old_lat": 28.435,
    "old_lon": 100.338
  },
  {
    "file": "yading_luorong_pasture.yaml",
    "name": "洛绒牛场",
    "poi_name": "甘孜稻城亚丁景区-洛绒牛场",
    "poi_address": "216省道附近稻城亚丁风景区内",
    "gcj02_lng": 100.382576,
    "gcj02_lat": 28.38666,
    "wgs84_lng": 100.381201,
    "wgs84_lat": 28.389973,
    "old_lat": 28.442,
    "old_lon": 100.318
  },
  {
    "file": "yading_milk_lake.yaml",
    "name": "牛奶海",
    "poi_name": "牛奶海",
    "poi_address": "香格里拉镇稻城亚丁景区内央迈勇神山山坳处",
    "gcj02_lng": 100.347279,
    "gcj02_lat": 28.370785,
    "wgs84_lng": 100.345963,
    "wgs84_lat": 28.374149,
    "old_lat": 28.438,
    "old_lon": 100.327
  },
  {
    "file": "yading_pearl_lake.yaml",
    "name": "珍珠海",
    "poi_name": "贵州珍酒珠海拾贝珍三十体验馆",
    "poi_address": "人民西路883号",
    "gcj02_lng": 113.523417,
    "gcj02_lat": 22.265484,
    "wgs84_lng": 113.518247,
    "wgs84_lat": 22.268392,
    "old_lat": 28.431,
    "old_lon": 100.288
  },
  {
    "file": "yala_balangshengdu.yaml",
    "name": "八郎生都",
    "poi_name": "八郎生都·星空别墅",
    "poi_address": "塔公镇八郎生都村八郎悬崖餐厅旁",
    "gcj02_lng": 101.429417,
    "gcj02_lat": 30.335656,
    "wgs84_lng": 101.42751,
    "wgs84_lat": 30.338197,
    "old_lat": 30.185,
    "old_lon": 101.706
  },
  {
    "file": "yala_gedilamu.yaml",
    "name": "格底拉姆",
    "poi_name": "格底拉姆大草原",
    "poi_address": "434省道东南侧",
    "gcj02_lng": 101.645637,
    "gcj02_lat": 30.233042,
    "wgs84_lng": 101.644077,
    "wgs84_lat": 30.2359,
    "old_lat": 30.083,
    "old_lon": 101.664
  },
  {
    "file": "yala_gunong.yaml",
    "name": "姑弄村",
    "poi_name": "姑弄村村民委员会",
    "poi_address": [],
    "gcj02_lng": 101.518098,
    "gcj02_lat": 30.352885,
    "wgs84_lng": 101.516433,
    "wgs84_lat": 30.355645,
    "old_lat": 30.112,
    "old_lon": 101.681
  },
  {
    "file": "yala_tagong_view.yaml",
    "name": "塔公草原机位",
    "poi_name": "塔公草原",
    "poi_address": "塔公乡政府北侧",
    "gcj02_lng": 101.55496,
    "gcj02_lat": 30.32993,
    "wgs84_lng": 101.553397,
    "wgs84_lat": 30.332783,
    "old_lat": 30.02,
    "old_lon": 101.546
  },
  {
    "file": "yala_yunrao_view.yaml",
    "name": "云绕亚拉",
    "poi_name": "云绕亚拉观景台停车场",
    "poi_address": "云绕雅拉·亚拉雪山观景台",
    "gcj02_lng": 101.663425,
    "gcj02_lat": 30.383841,
    "wgs84_lng": 101.661825,
    "wgs84_lat": 30.38665,
    "old_lat": 30.205,
    "old_lon": 101.724
  },
  {
    "file": "tagong_muya.yaml",
    "name": "木雅金塔机位",
    "poi_name": "塔公草原-木雅金塔",
    "poi_address": "塔公草原内(西侧)",
    "gcj02_lng": 101.528106,
    "gcj02_lat": 30.320579,
    "wgs84_lng": 101.526473,
    "wgs84_lat": 30.323371,
    "old_lat": 30.008,
    "old_lon": 101.542
  },
  {
    "file": "transit_18bends_view.yaml",
    "name": "天路十八弯观景台",
    "poi_name": "天路十八弯观景台",
    "poi_address": "G318(沪聂线)",
    "gcj02_lng": 100.874941,
    "gcj02_lat": 29.996868,
    "wgs84_lng": 100.873712,
    "wgs84_lat": 29.999766,
    "old_lat": 30.103,
    "old_lon": 100.248
  },
  {
    "file": "transit_daerpu_valley.yaml",
    "name": "大二普",
    "poi_name": "达尔",
    "poi_address": "若尔盖县",
    "gcj02_lng": 102.490334,
    "gcj02_lat": 33.724241,
    "wgs84_lng": 102.48861,
    "wgs84_lat": 33.725898,
    "old_lat": 31.377,
    "old_lon": 102.938
  },
  {
    "file": "transit_gaoersi_pass.yaml",
    "name": "高尔寺山垭口",
    "poi_name": "高尔寺山",
    "poi_address": "雅江县",
    "gcj02_lng": 101.347108,
    "gcj02_lat": 30.037257,
    "wgs84_lng": 101.345279,
    "wgs84_lat": 30.039849,
    "old_lat": 29.789,
    "old_lon": 101.546
  },
  {
    "file": "transit_jiagenba_view.yaml",
    "name": "甲根坝机位",
    "poi_name": "甲根坝镇人民政府",
    "poi_address": "甲根坝镇G248",
    "gcj02_lng": 101.560576,
    "gcj02_lat": 29.844097,
    "wgs84_lng": 101.55904,
    "wgs84_lat": 29.846973,
    "old_lat": 29.93,
    "old_lon": 101.654
  },
  {
    "file": "transit_jianziwan_pass.yaml",
    "name": "剪子弯山垭口",
    "poi_name": "G318剪子弯山服务区",
    "poi_address": "G318剪子弯山超充站旁",
    "gcj02_lng": 100.798011,
    "gcj02_lat": 30.018499,
    "wgs84_lng": 100.796678,
    "wgs84_lat": 30.021268,
    "old_lat": 29.954,
    "old_lon": 100.773
  },
  {
    "file": "transit_kazila_pass.yaml",
    "name": "卡子拉山垭口",
    "poi_name": "卡子拉山",
    "poi_address": "理塘县",
    "gcj02_lng": 100.648263,
    "gcj02_lat": 30.14515,
    "wgs84_lng": 100.647116,
    "wgs84_lat": 30.148019,
    "old_lat": 30.065,
    "old_lon": 100.582
  },
  {
    "file": "transit_lixiao_redstone.yaml",
    "name": "理小路红石滩（凉台沟）",
    "poi_name": "凉台沟",
    "poi_address": "梭罗沟境内",
    "gcj02_lng": 102.877928,
    "gcj02_lat": 31.385675,
    "wgs84_lng": 102.876353,
    "wgs84_lat": 31.388087,
    "old_lat": 31.327,
    "old_lon": 102.962
  },
  {
    "file": "transit_lixiao_tunnel_view.yaml",
    "name": "理小隧道口观景台",
    "poi_name": "理小隧道",
    "poi_address": "小金县",
    "gcj02_lng": 102.74641,
    "gcj02_lat": 31.307927,
    "wgs84_lng": 102.744718,
    "wgs84_lat": 31.310194,
    "old_lat": 31.351,
    "old_lon": 102.984
  },
  {
    "file": "transit_xinduqiao_view.yaml",
    "name": "新都桥镇外机位",
    "poi_name": "新都桥镇人民政府",
    "poi_address": "215省道",
    "gcj02_lng": 101.493313,
    "gcj02_lat": 30.045517,
    "wgs84_lng": 101.491576,
    "wgs84_lat": 30.048217,
    "old_lat": 30.03,
    "old_lon": 101.509
  },
  {
    "file": "transit_zheduoshan_pass.yaml",
    "name": "折多山垭口",
    "poi_name": "折多山口",
    "poi_address": "康定市",
    "gcj02_lng": 101.805146,
    "gcj02_lat": 30.07155,
    "wgs84_lng": 101.803517,
    "wgs84_lat": 30.074318,
    "old_lat": 30.049,
    "old_lon": 101.724
  },
  {
    "file": "bipenggou_panyang.yaml",
    "name": "磐羊湖",
    "poi_name": "磐羊湖",
    "poi_address": "朴头镇毕棚沟内",
    "gcj02_lng": 102.871576,
    "gcj02_lat": 31.226784,
    "wgs84_lng": 102.870003,
    "wgs84_lat": 31.229248,
    "old_lat": 31.339,
    "old_lon": 103.712
  },
  {
    "file": "dagu_4860.yaml",
    "name": "4860观景台",
    "poi_name": "达古冰川风景名胜区",
    "poi_address": "芦花镇马桥",
    "gcj02_lng": 102.911009,
    "gcj02_lat": 32.13102,
    "wgs84_lng": 102.909396,
    "wgs84_lat": 32.133504,
    "old_lat": 32.2,
    "old_lon": 102.708
  },
  {
    "file": "duoraogamu_yala_view.yaml",
    "name": "亚拉主景平台",
    "poi_name": "墨石公园景区",
    "poi_address": "八美镇",
    "gcj02_lng": 101.5424,
    "gcj02_lat": 30.444886,
    "wgs84_lng": 101.540804,
    "wgs84_lat": 30.447693,
    "old_lat": 30.153,
    "old_lon": 101.719
  },
  {
    "file": "guergou_hot_spring_view.yaml",
    "name": "河谷温泉机位",
    "poi_name": "牟尼沟风景区",
    "poi_address": "牟尼乡(近2093县道)",
    "gcj02_lng": 103.555004,
    "gcj02_lat": 32.592801,
    "wgs84_lng": 103.552897,
    "wgs84_lat": 32.595224,
    "old_lat": 31.575,
    "old_lon": 103.389
  },
  {
    "file": "jiuzhai_wuhuahai.yaml",
    "name": "五花海",
    "poi_name": "九寨沟景区五花海",
    "poi_address": "漳扎镇九寨沟风景名胜区内",
    "gcj02_lng": 103.880785,
    "gcj02_lat": 33.159205,
    "wgs84_lng": 103.878596,
    "wgs84_lat": 33.161324,
    "old_lat": 33.184,
    "old_lon": 103.903
  },
  {
    "file": "lianbaoyeze_zhagaer.yaml",
    "name": "扎尕尔措",
    "poi_name": "扎尕尔措",
    "poi_address": "河源游客服务区南约1.4公里",
    "gcj02_lng": 101.175988,
    "gcj02_lat": 33.064456,
    "wgs84_lng": 101.174174,
    "wgs84_lat": 33.066421,
    "old_lat": 32.964,
    "old_lon": 100.784
  },
  {
    "file": "majiagou_main_view.yaml",
    "name": "主沟观景点",
    "poi_name": "磨西古镇",
    "poi_address": "磨西镇",
    "gcj02_lng": 102.12699,
    "gcj02_lat": 29.64068,
    "wgs84_lng": 102.125221,
    "wgs84_lat": 29.643257,
    "old_lat": 31.571,
    "old_lon": 102.884
  },
  {
    "file": "mengtun_gaoqiaogou.yaml",
    "name": "高桥沟",
    "poi_name": "孟屯河谷风景区",
    "poi_address": "上孟乡木尼村四组",
    "gcj02_lng": 103.093121,
    "gcj02_lat": 31.722838,
    "wgs84_lng": 103.090956,
    "wgs84_lat": 31.724865,
    "old_lat": 31.466,
    "old_lon": 103.188
  },
  {
    "file": "moshi_main_view.yaml",
    "name": "异域星球观景位",
    "poi_name": "墨石公园景区",
    "poi_address": "八美镇",
    "gcj02_lng": 101.5424,
    "gcj02_lat": 30.444886,
    "wgs84_lng": 101.540804,
    "wgs84_lat": 30.447693,
    "old_lat": 30.045,
    "old_lon": 101.565
  },
  {
    "file": "zhagushan_pass.yaml",
    "name": "鹧鸪山垭口机位",
    "poi_name": "鹧鸪山",
    "poi_address": "理县",
    "gcj02_lng": 102.674098,
    "gcj02_lat": 31.85078,
    "wgs84_lng": 102.672527,
    "wgs84_lat": 31.853109,
    "old_lat": 31.779,
    "old_lon": 102.929
  },
  {
    "file": "niubei_gongga.yaml",
    "name": "牛背山",
    "poi_name": "牛背山",
    "poi_address": "石棉县",
    "gcj02_lng": 102.297992,
    "gcj02_lat": 29.201567,
    "wgs84_lng": 102.29642,
    "wgs84_lat": 29.204494,
    "old_lat": 29.75,
    "old_lon": 102.35
  },
  {
    "file": "shenmulei_redwood_view.yaml",
    "name": "红杉林主机位",
    "poi_name": "硗碛藏寨·神木垒景区",
    "poi_address": "硗碛乡环山梁子村351国道西侧",
    "gcj02_lng": 102.676532,
    "gcj02_lat": 30.675964,
    "wgs84_lng": 102.674996,
    "wgs84_lat": 30.678644,
    "old_lat": 30.782,
    "old_lon": 102.872
  },
  {
    "file": "zheduo_gongga.yaml",
    "name": "折多山",
    "poi_name": "折多山",
    "poi_address": "康定市",
    "gcj02_lng": 101.805834,
    "gcj02_lat": 30.06726,
    "wgs84_lng": 101.804206,
    "wgs84_lat": 30.07003,
    "old_lat": 30.05,
    "old_lon": 101.72
  }
]